[{"types": ["premise"], "place_id": "ChIJnU6SJJNTwokRk8X0s5VFQHA", "formatted_address": "88 Marne St, Newark, NJ 07105, USA", "address_components": [{"long_name": "88", "short_name": "88", "types": ["street_number"]}, {"long_name": "Marne Street", "short_name": "Marne St", "types": ["route"]}, {"long_name": "North Ironbound", "short_name": "North Ironbound", "types": ["neighborhood", "political"]}, {"long_name": "Newark", "short_name": "Newark", "types": ["locality", "political"]}, {"long_name": "Essex County", "short_name": "Essex County", "types": ["administrative_area_level_2", "political"]}, {"long_name": "New Jersey", "short_name": "NJ", "types": ["administrative_area_level_1", "political"]}, {"long_name": "United States", "short_name": "US", "types": ["country", "political"]}, {"long_name": "07105", "short_name": "07105", "types": ["postal_code"]}, {"long_name": "3418", "short_name": "3418", "types": ["postal_code_suffix"]}], "geometry": {"location": {"lng": -74.14850530000001, "lat": 40.7260549}, "bounds": {"northeast": {"lng": -74.14842809999999, "lat": 40.72612640000001}, "southwest": {"lng": -74.14858989999999, "lat": 40.7259868}}, "location_type": "ROOFTOP", "viewport": {"northeast": {"lng": -74.1471600197085, "lat": 40.7274055802915}, "southwest": {"lng": -74.1498579802915, "lat": 40.7247076197085}}}}]